# data_set number to country name:
# 01 -> China
# 02 -> Thailand
# 03 -> South Korea
# 04 -> Japan
# 05 -> Australia
# 06 -> America

####### 01 START #######
- title: "Changbai Mountain Heaven Lake"
  data_set: "01"
  location:
    latitude: 42.068512
    longitude: 128.073444

- title: "Shenyang"
  data_set: "01"
  location:
    latitude: 41.565330
    longitude: 123.544836

- title: "Shenyang"
  data_set: "01"
  location:
    latitude: 41.802626
    longitude: 123.425493

- title: "Qinhuangdao"
  data_set: "01"
  location:
    latitude: 39.937033
    longitude: 119.599222

- title: "Beijing"
  data_set: "01"
  location:
    latitude: 39.913969
    longitude: 116.404220

- title: "Shijiazhuang"
  data_set: "01"
  location:
    latitude: 38.047192
    longitude: 114.515313

- title: "Handan"
  data_set: "01"
  location:
    latitude: 36.710513
    longitude: 114.537874

- title: "Jinan"
  data_set: "01"
  location:
    latitude: 36.655841
    longitude: 117.119820

- title: "Qingdao"
  data_set: "01"
  location:
    latitude: 36.073257
    longitude: 120.381086

- title: "Zhengzhou"
  data_set: "01"
  location:
    latitude: 34.757844
    longitude: 113.627501

- title: "Zhengzhou"
  data_set: "01"
  location:
    latitude: 34.757844
    longitude: 113.627501

- title: "Xuzhou"
  data_set: "01"
  location:
    latitude: 34.209034
    longitude: 117.283797

- title: "Taishan Mountain"
  data_set: "01"
  location:
    latitude: 36.256940
    longitude: 117.105599

- title: "Xi'an"
  data_set: "01"
  location:
    latitude: 34.345069
    longitude: 108.941368

- title: "Yancheng"
  data_set: "01"
  location:
    latitude: 33.348848
    longitude: 120.161891

- title: "Yangzhou"
  data_set: "01"
  location:
    latitude: 32.396494
    longitude: 119.412484

- title: "Zhenjiang"
  data_set: "01"
  location:
    latitude: 32.186158
    longitude: 119.427101

- title: "Nanjing"
  data_set: "01"
  location:
    latitude: 32.057776
    longitude: 118.798049

- title: "Hefei"
  data_set: "01"
  location:
    latitude: 31.819845
    longitude: 117.225798

- title: "Anqing"
  data_set: "01"
  location:
    latitude: 30.532490
    longitude: 117.114268

- title: "Huangshan Mountain"
  data_set: "01"
  location:
    latitude: 30.138426
    longitude: 118.165284

- title: "Suzhou"
  data_set: "01"
  location:
    latitude: 31.300093
    longitude: 120.583845

- title: "Shanghai"
  data_set: "01"
  location:
    latitude: 31.240749
    longitude: 121.465844

- title: "Hangzhou"
  data_set: "01"
  location:
    latitude: 30.277439
    longitude: 120.152696

- title: "Xiamen"
  data_set: "01"
  location:
    latitude: 24.481048
    longitude: 118.087920

- title: "Shenzhen"
  data_set: "01"
  location:
    latitude: 22.547062
    longitude: 114.053858

- title: "Hong Kong"
  data_set: "01"
  location:
    latitude: 22.319139
    longitude: 114.171587

- title: "Taipei"
  data_set: "01"
  location:
    latitude: 25.040225
    longitude: 121.565522

- title: "Taipei"
  data_set: "01"
  location:
    latitude: 25.040225
    longitude: 121.565522

- title: "Yilan"
  data_set: "01"
  location:
    latitude: 24.702876
    longitude: 121.737709

- title: "Hualien"
  data_set: "01"
  location:
    latitude: 23.992633
    longitude: 121.602906

- title: "Taitung"
  data_set: "01"
  location:
    latitude: 22.800179
    longitude: 121.072390

- title: "Green Island"
  data_set: "01"
  location:
    latitude: 22.661872
    longitude: 121.490215

- title: "Kenting"
  data_set: "01"
  location:
    latitude: 21.953611
    longitude: 120.779625

- title: "Kaohsiung"
  data_set: "01"
  location:
    latitude: 22.630779
    longitude: 120.299724

- title: "Tainan"
  data_set: "01"
  location:
    latitude: 23.001273
    longitude: 120.227821

- title: "Sun Moon Lake"
  data_set: "01"
  location:
    latitude: 23.858424
    longitude: 120.916136

- title: "Taichung"
  data_set: "01"
  location:
    latitude: 24.146399
    longitude: 120.679799
####### 01 END #######


####### 02 START #######
- title: "Phuket"
  data_set: "02"
  location:
    latitude: 7.888599
    longitude: 98.304344

- title: "Krabi"
  data_set: "02"
  location:
    latitude: 7.977795
    longitude: 98.961742
####### 02 END #######

####### 03 START #######
- title: "Seoul"
  data_set: "03"
  location:
    latitude: 37.552984
    longitude: 126.984036
####### 03 END #######

####### 04 START #######
- title: "Osaka"
  data_set: "04"
  location:
    latitude: 34.656378
    longitude: 135.491847

- title: "Kyoto"
  data_set: "04"
  location:
    latitude: 35.007010
    longitude: 135.766545

- title: "Nara"
  data_set: "04"
  location:
    latitude: 34.686640
    longitude: 135.805562

- title: "Mount Fuji"
  data_set: "04"
  location:
    latitude: 35.362747
    longitude: 138.730849

- title: "Hakone"
  data_set: "04"
  location:
    latitude: 35.232642
    longitude: 139.030788

- title: "Yokohama"
  data_set: "04"
  location:
    latitude: 35.454611
    longitude: 139.635834

- title: "Tokyo"
  data_set: "04"
  location:
    latitude: 35.687038
    longitude: 139.749830

- title: "Tateyama"
  data_set: "04"
  location:
    latitude: 34.992554
    longitude: 139.860029
####### 04 END #######

####### 05 START #######
- title: "Adelaide"
  data_set: "05"
  location:
    latitude: -34.911347
    longitude: 138.560088

- title: "Melbourne"
  data_set: "05"
  location:
    latitude: -37.828019
    longitude: 144.949440

- title: "Sydney"
  data_set: "05"
  location:
    latitude: -33.862896
    longitude: 151.209320

- title: "Gold Coast"
  data_set: "05"
  location:
    latitude: -28.012918
    longitude: 153.417313
####### 05 END #######

####### 06 START #######
- title: "Pittsburgh"
  data_set: "06"
  location:
    latitude: 40.442533
    longitude: -80.000628

- title: "Miami"
  data_set: "06"
  location:
    latitude: 25.766743
    longitude: -80.191119

- title: "Key West"
  data_set: "06"
  location:
    latitude: 24.554958
    longitude: -81.787066

- title: "Myrtle Beach"
  data_set: "06"
  location:
    latitude: 33.693720
    longitude: -78.881575

- title: "Denver"
  data_set: "06"
  location:
    latitude: 39.732055
    longitude: -104.971862

- title: "Golden"
  data_set: "06"
  location:
    latitude: 39.753146
    longitude: -105.221048

- title: "Rocky Mountain National Park"
  data_set: "06"
  location:
    latitude: 40.342359
    longitude: -105.680155

- title: "Great Sand Dunes National Park"
  data_set: "06"
  location:
    latitude: 37.790778
    longitude: -105.592918

- title: "Garden of the Gods"
  data_set: "06"
  location:
    latitude: 38.878404
    longitude: -104.869852

- title: "Arches National Park"
  data_set: "06"
  location:
    latitude: 38.732740
    longitude: -109.587014

- title: "Zion National Park"
  data_set: "06"
  location:
    latitude: 37.298966
    longitude: -113.024055

- title: "Las Vegas"
  data_set: "06"
  location:
    latitude: 36.170890
    longitude: -115.142794

- title: "Hoover Dam"
  data_set: "06"
  location:
    latitude: 36.015987
    longitude: -114.737679

- title: "Los Angeles"
  data_set: "06"
  location:
    latitude: 34.057798
    longitude: -118.263036

- title: "Santa Barbara"
  data_set: "06"
  location:
    latitude: 34.415214
    longitude: -119.690423

- title: "Santa Maria"
  data_set: "06"
  location:
    latitude: 34.948880
    longitude: -120.436159

- title: "McWay Falls"
  data_set: "06"
  location:
    latitude: 36.158914
    longitude: -121.672178

- title: "Monterey"
  data_set: "06"
  location:
    latitude: 36.601113
    longitude: -121.889302

- title: "Santa Cruz"
  data_set: "06"
  location:
    latitude: 36.959287
    longitude: -122.018412

- title: "San Jose"
  data_set: "06"
  location:
    latitude: 37.330778
    longitude: -121.886054

- title: "San Francisco"
  data_set: "06"
  location:
    latitude: 37.777153
    longitude: -122.413163

- title: "Redding"
  data_set: "06"
  location:
    latitude: 40.581909
    longitude: -122.354778

- title: "Portland"
  data_set: "06"
  location:
    latitude: 45.518454
    longitude: -122.678338

- title: "Seattle"
  data_set: "06"
  location:
    latitude: 47.602196
    longitude: -122.331109

- title: "Bellevue"
  data_set: "06"
  location:
    latitude: 47.611665
    longitude: -122.200914

- title: "Cleveland"
  data_set: "06"
  location:
    latitude: 41.498375
    longitude: -81.693497

- title: "Kalahari Resorts Sandusky"
  data_set: "06"
  location:
    latitude: 41.383804
    longitude: -82.641620

- title: "Ohiopyle (cucumber falls, rafting)"
  data_set: "06"
  location:
    latitude: 39.868924
    longitude: -79.493060

####### 06 END #######






